{"version":8,"name":"HOTMESS Night Pulse","projection":{"type":"globe"},"center":[0,20],"zoom":1.5,"sources":{"composite":{"url":"mapbox://mapbox.mapbox-streets-v8","type":"vector"},"venues":{"type":"geojson","data":{"type":"FeatureCollection","features":[{"type":"Feature","properties":{"name":"Heaven","city":"London","scans":145},"geometry":{"type":"Point","coordinates":[-0.1206,51.5081]}},{"type":"Feature","properties":{"name":"Royal Vauxhall Tavern","city":"London","scans":89},"geometry":{"type":"Point","coordinates":[-0.1235,51.4862]}},{"type":"Feature","properties":{"name":"The Glory","city":"London","scans":67},"geometry":{"type":"Point","coordinates":[-0.0559,51.5392]}},{"type":"Feature","properties":{"name":"Dalston Superstore","city":"London","scans":78},"geometry":{"type":"Point","coordinates":[-0.0750,51.5466]}},{"type":"Feature","properties":{"name":"Eagle London","city":"London","scans":52},"geometry":{"type":"Point","coordinates":[-0.1208,51.4848]}},{"type":"Feature","properties":{"name":"XXL London","city":"London","scans":34},"geometry":{"type":"Point","coordinates":[-0.1270,51.5145]}},{"type":"Feature","properties":{"name":"Horse Meat Disco","city":"London","scans":112},"geometry":{"type":"Point","coordinates":[-0.0272,51.5074]}},{"type":"Feature","properties":{"name":"Circa","city":"London","scans":41},"geometry":{"type":"Point","coordinates":[-0.1149,51.4837]}},{"type":"Feature","properties":{"name":"The Yard","city":"London","scans":93},"geometry":{"type":"Point","coordinates":[-0.1319,51.5124]}},{"type":"Feature","properties":{"name":"G-A-Y Bar","city":"London","scans":87},"geometry":{"type":"Point","coordinates":[-0.1340,51.5101]}},{"type":"Feature","properties":{"name":"Berghain","city":"Berlin","scans":178},"geometry":{"type":"Point","coordinates":[13.4427,52.5108]}},{"type":"Feature","properties":{"name":"SchwuZ","city":"Berlin","scans":64},"geometry":{"type":"Point","coordinates":[13.4294,52.4889]}},{"type":"Feature","properties":{"name":"Laboratory","city":"Berlin","scans":48},"geometry":{"type":"Point","coordinates":[13.4125,52.5026]}},{"type":"Feature","properties":{"name":"Ficken 3000","city":"Berlin","scans":39},"geometry":{"type":"Point","coordinates":[13.4105,52.5244]}},{"type":"Feature","properties":{"name":"Monster Ronsons","city":"Berlin","scans":31},"geometry":{"type":"Point","coordinates":[13.4205,52.4965]}},{"type":"Feature","properties":{"name":"The Eagle NYC","city":"New York","scans":134},"geometry":{"type":"Point","coordinates":[-73.9857,40.7484]}},{"type":"Feature","properties":{"name":"Phoenix Bar","city":"New York","scans":76},"geometry":{"type":"Point","coordinates":[-73.9973,40.7338]}},{"type":"Feature","properties":{"name":"Therapy NYC","city":"New York","scans":69},"geometry":{"type":"Point","coordinates":[-73.9918,40.7625]}},{"type":"Feature","properties":{"name":"Industry Bar","city":"New York","scans":58},"geometry":{"type":"Point","coordinates":[-74.0070,40.7427]}},{"type":"Feature","properties":{"name":"The Ritz","city":"New York","scans":43},"geometry":{"type":"Point","coordinates":[-73.9878,40.7442]}},{"type":"Feature","properties":{"name":"The Eagle SF","city":"San Francisco","scans":102},"geometry":{"type":"Point","coordinates":[-122.4115,37.7749]}},{"type":"Feature","properties":{"name":"Powerhouse Bar","city":"San Francisco","scans":67},"geometry":{"type":"Point","coordinates":[-122.4147,37.7633]}},{"type":"Feature","properties":{"name":"The Stud","city":"San Francisco","scans":54},"geometry":{"type":"Point","coordinates":[-122.4105,37.7585]}},{"type":"Feature","properties":{"name":"The Abbey","city":"Los Angeles","scans":121},"geometry":{"type":"Point","coordinates":[-118.3617,34.0901]}},{"type":"Feature","properties":{"name":"Church","city":"Amsterdam","scans":98},"geometry":{"type":"Point","coordinates":[4.8945,52.3676]}},{"type":"Feature","properties":{"name":"Prik","city":"Amsterdam","scans":72},"geometry":{"type":"Point","coordinates":[4.8952,52.3702]}},{"type":"Feature","properties":{"name":"ARQ Sydney","city":"Sydney","scans":156},"geometry":{"type":"Point","coordinates":[151.2093,-33.8688]}},{"type":"Feature","properties":{"name":"Imperial Erskineville","city":"Sydney","scans":81},"geometry":{"type":"Point","coordinates":[151.1847,-33.9013]}},{"type":"Feature","properties":{"name":"Le Depot","city":"Paris","scans":143},"geometry":{"type":"Point","coordinates":[2.3522,48.8606]}},{"type":"Feature","properties":{"name":"CUD Bar","city":"Paris","scans":68},"geometry":{"type":"Point","coordinates":[2.3470,48.8584]}},{"type":"Feature","properties":{"name":"Metro Disco","city":"Barcelona","scans":109},"geometry":{"type":"Point","coordinates":[2.1734,41.3851]}}]}}},"fog":{"color":"#ff0080","high-color":"#ff0080","horizon-blend":0.1,"space-color":"#000000","star-intensity":0.5},"layers":[{"id":"background","type":"background","paint":{"background-color":"#000000"}},{"id":"land","type":"fill","source":"composite","source-layer":"land","paint":{"fill-color":"#1a1a1a"}},{"id":"water","type":"fill","source":"composite","source-layer":"water","paint":{"fill-color":"#0a0a0a"}},{"id":"venue-glow","type":"circle","source":"venues","paint":{"circle-radius":["interpolate",["linear"],["zoom"],1,15,5,30,10,60],"circle-color":["case",[">=",["get","scans"],100],"#ff1694",[">=",["get","scans"],10],"#ff0080","#e70f3c"],"circle-opacity":0.3,"circle-blur":1.5}},{"id":"venue-markers","type":"circle","source":"venues","paint":{"circle-radius":["interpolate",["linear"],["zoom"],1,8,5,20,10,40],"circle-color":["case",[">=",["get","scans"],100],"#ff1694",[">=",["get","scans"],10],"#ff0080","#e70f3c"],"circle-opacity":0.9,"circle-stroke-width":2,"circle-stroke-color":"#ffffff"}},{"id":"venue-labels","type":"symbol","source":"venues","layout":{"text-field":["get","name"],"text-size":["interpolate",["linear"],["zoom"],1,0,3,10,10,16],"text-offset":[0,-2],"text-anchor":"bottom"},"paint":{"text-color":"#ffffff","text-halo-color":"#000000","text-halo-width":2,"text-opacity":["interpolate",["linear"],["zoom"],1,0,3,1]}}]}
